time,vehicle x-position,vehicle y-position,vehicle z-position,velocity (m/s),revolutions per minute,roll (radians),pitch (radians),yaw (radians),water temperature (Celsius),velocity (m/s),rotation of the steering wheel,throttle,brake,clutch,airspeed,airflow speed,altitude,reverse,throttle,
0.012500000186265,-195.91657937167,-162.33031083207,119.53510784654,0.00021156718030469,637.3923788502,5.4883770644665e-05,-0.0061838012188673,2.1920545101166,87.594974855421,0.00021156718030469,0,0,0,1,0.00022898006500344,2.5071192352862e-05,119.53510912452,0,0,
0.17950000334531,-195.91657878032,-162.330312908,119.53510791493,0.00025252200266859,635.9142347645,5.3116818889976e-05,-0.0061837462708354,2.1920547485352,87.596699975012,0.00025252200266859,0,0,0,1,0.00024471014752112,5.1623146775289e-05,119.53511039946,0,0,
0.34650000650436,-195.91658154073,-162.33030824929,119.5351055555,0.00026727382303913,637.63059467362,4.7509092837572e-05,-0.0061832056380808,2.1920549869537,87.598436569454,0.00026727382303913,0,0,0,1,0.00022743728324393,6.2280985092208e-05,119.53510664726,0,0,
0.5090000089258,-195.91658269864,-162.33030724969,119.5351034927,0.00023476906049563,637.53867585596,4.4088112190366e-05,-0.0061838524416089,2.1920537948608,87.600179778138,0.00023476906049563,1.4052019888321e-11,0,0,1,0.00024248482435761,9.8870736651547e-05,119.53510535911,0,0,
0.68300001136959,-195.91658152101,-162.33031040661,119.53510496114,0.00021975765421475,639.98317759518,4.7803390771151e-05,-0.0061847767792642,2.1920530796051,87.602060160222,0.00021975765421475,0,0,0,1,0.00023968545006629,7.3019001357755e-05,119.53510295484,0,0,
0.85300001315773,-195.9165800081,-162.33031163852,119.53510917594,0.00011039495396391,632.77162223308,6.2145292758942e-05,-0.0061844838783145,2.1920540332794,87.603928705975,0.00011039495396391,0,0,0,1,0.00015064836888193,5.5935174332454e-05,119.53511014295,0,0,
1.0235000150278,-195.91658096648,-162.33031011502,119.53510569138,0.00019147741053121,631.46011430679,4.7850189730525e-05,-0.0061843902803957,2.1920552253723,87.605750955296,0.00019147741053121,0,0,0,1,0.00020558605825763,6.4759314142651e-05,119.53510775241,0,0,
1.193500016816,-195.91658186893,-162.3303082559,119.53510613621,0.00034142084762004,631.81757489369,4.6995468437672e-05,-0.0061833802610636,2.1920552253723,87.607541489292,0.00034142084762004,0,0,0,1,0.00024605868651363,6.2085483261421e-05,119.53510614715,0,0,
1.3635000186041,-195.91666977222,-162.33021736493,119.53490599562,0.0052720908810825,913.94010300062,-0.00053831445984542,-0.0061850361526012,2.1920526027679,87.609389851156,0.0052720908810825,6.4457441817135e-08,0.25500000268221,0,0,0.0033627778379778,0.0020601282399057,119.53503171535,0,0.25500000268221,
1.5345000205562,-195.91660601636,-162.33033489355,119.53442898666,0.00097848753876082,2425.1003527352,-0.0016232430934906,-0.0061938297003508,2.19202876091,87.616526095295,0.00097848753876082,7.6840577696367e-08,0.76800000853837,0,0,0.0029491727984804,0.0031709912864569,119.53453102691,0,0.76800000853837,
1.7060000225902,-195.91656617702,-162.33037745461,119.5344207521,0.00039789552188772,4474.38132746,-0.0018343485426158,-0.006197058595717,2.1920161247253,87.655263432352,0.00039789552188772,-1.5209245055595e-10,1,0,0,0.00061321860961944,0.0005691155108269,119.53443773231,0,1,
1.8805000251159,-195.91665526888,-162.33013540337,119.53488779645,0.007223708711361,5439.5405511169,-0.00011746725067496,-0.0061995671130717,2.1920990943909,87.781642808082,0.007223708711361,6.7691059570259e-07,0,0,0,0.0074901954638641,0.0054599297014091,119.53475096363,0,0,
2.0430000275373,-195.91653401837,-162.33028940648,119.53504838884,0.0016206826792365,5045.0876368187,0.00054003810510039,-0.0062021752819419,2.1920726299286,87.909921132663,0.0016206826792365,-5.534016067783e-09,0,0,0,0.0026220658190141,0.002291557679424,119.53505987072,0,0,
2.2165000298992,-195.91657027033,-162.33028480015,119.53514115388,0.00074393434144637,4551.022187358,0.00046452274546027,-0.0062065343372524,2.1920554637909,88.00801535419,0.00074393434144637,3.2402304683659e-10,0,0,0,0.00085481930656639,0.0007862115145652,119.53511116057,0,0,
2.3885000320151,-195.9165846448,-162.33029902007,119.53519919261,0.00016187872737763,4065.6041983974,0.00046111992560327,-0.0061972523108125,2.1920511722565,88.067654444619,0.00016187872737763,1.9838145724689e-11,0,0,0,0.0003539720557549,0.00036177572861461,119.53518787226,0,0,
2.5605000341311,-195.91658630547,-162.33030024398,119.53522196508,7.0986056400522e-05,3591.0985788042,0.00045410473830998,-0.0061885882169008,2.1920564174652,88.098804947623,7.0986056400522e-05,0,0,0,0,0.00020840116891325,0.00017640337306214,119.53521638424,0,0,
2.7320000361651,-195.91658578703,-162.33030054031,119.53522847107,0.00034445317688732,3124.2041631983,0.00044817151501775,-0.0061845942400396,2.1920630931854,88.10992994292,0.00034445317688732,1.6531788103907e-12,0,0,0,0.00015553746183581,8.2737668567035e-05,119.53522576009,0,0,
2.9025000380352,-195.91658480103,-162.33030074065,119.53523077406,0.00017384927824955,2668.0440640804,0.00044306879863143,-0.0061833919025958,2.1920683383942,88.107498521532,0.00017384927824955,1.6531788103907e-12,0,0,0,0.00015825739055934,5.4368874620202e-05,119.5352316882,0,0,
3.0735000399873,-195.91658432291,-162.33030093034,119.53523004717,0.00013509092506944,2221.1666130031,0.00043658446520567,-0.0061832503415644,2.19207072258,88.096206549403,0.00013509092506944,1.6531788103907e-12,0,0,0,0.00022223841390316,6.4004918512145e-05,119.53523250631,0,0,
3.2430000416934,-195.91658488946,-162.3303007969,119.53522966757,0.00026740135850282,1782.935797828,0.0004310084041208,-0.0061830063350499,2.1920692920685,88.079400937993,0.00026740135850282,1.6531788103907e-12,0,0,0,0.00019973635195351,5.5645574581423e-05,119.53523254229,0,0,
3.4130000434816,-195.91658616591,-162.3303016343,119.53522850679,5.0830461030281e-05,1353.7580107057,0.00042416690848768,-0.0061828317120671,2.192066192627,88.059501901393,5.0830461030281e-05,1.6531788103907e-12,0,0,0,0.00013140136065832,3.8305837671504e-05,119.53522619448,0,0,
3.5840000454336,-195.91658679985,-162.33030204769,119.53522704175,6.2926098647895e-05,929.61413577678,0.00041805324144661,-0.0061829797923565,2.1920623779297,88.038144695751,6.2926098647895e-05,1.6531788103907e-12,0,0,0,0.00014375407130926,3.1629762166623e-05,119.53522557541,0,0,
3.7560000475496,-195.91659018409,-162.33031031728,119.53514213965,0.0014581007276123,654.39942261794,0.00018482515588403,-0.0061856140382588,2.1920475959778,88.016621442397,0.0014581007276123,5.3232357694582e-10,0,0,1,0.0012604959220399,0.00083146643835976,119.5351777941,0,0,
3.9295000499114,-195.91658394406,-162.33030358697,119.53508031891,0.00048761931053535,631.91024201065,4.4061802327633e-05,-0.0061882501468062,2.1920521259308,87.996903953914,0.00048761931053535,2.0830053010923e-10,0,0,1,0.00061291220176547,0.00052745646594182,119.53507996621,0,0,
4.1030000522733,-195.91658082169,-162.33031213565,119.53509958246,0.00018634856689526,630.35748377339,5.1394104957581e-05,-0.0061881365254521,2.1920552253723,87.979472040448,0.00018634856689526,-4.9595364311722e-12,0,0,1,0.00026583812259311,0.00010494174564673,119.53509885985,0,0,
4.2750000543892,-195.91657842194,-162.33031039387,119.53510236712,0.00019607443525744,639.01339853891,4.5862281695008e-05,-0.006185709964484,2.1920580863953,87.964284068174,0.00019607443525744,0,0,0,1,0.00023645841184308,6.777766968628e-05,119.53510125227,0,0,
4.4450000561774,-195.91657773972,-162.33030890266,119.53510863145,0.00030168691090702,636.29882698849,6.1120139434934e-05,-0.0061840950511396,2.192058801651,87.95120425701,0.00030168691090702,0,0,0,1,0.00022448661689393,6.5756809514634e-05,119.53510849862,0,0,
4.6150000579655,-195.91658518474,-162.33030009024,119.53509552014,0.0022725701542145,669.80465081779,2.3654662072659e-05,-0.0061846226453781,2.1920626163483,87.940000339326,0.0022725701542145,0,0.11100000143051,0,0,0.00069605409632641,0.00013358956990515,119.53510188686,0,0.11100000143051,
4.7790000606328,-195.9165299478,-162.33046231327,119.53437276708,0.0041596604350506,2090.4909067828,-0.0017855090554804,-0.0061967899091542,2.1920022964478,87.933599750485,0.0041596604350506,-3.0849391168118e-07,0.60300000943244,0,0,0.0050810100895616,0.0047377051604195,119.5346021725,0,0.60300000943244,
4.9430000633001,-195.91658183193,-162.33039375116,119.53427519319,0.00067088160449404,4361.3437382396,-0.0021083950996399,-0.0061997440643609,2.1919860839844,87.952850657486,0.00067088160449404,-1.0497685445981e-10,1,0,0,0.0011187126490809,0.0010984746347993,119.53427212832,0,1,
5.116500065662,-195.91653717792,-162.33046676294,119.53444621458,0.0068287506031743,6776.9417075232,-0.0018586397636682,-0.0061939475126565,2.191974401474,88.076398209385,0.0068287506031743,-3.1381466768242e-09,1,0,0,0.0026988808155208,0.0013840631857133,119.53436043329,0,1,
5.2900000680238,-195.91659206569,-162.33029636028,119.53509954844,0.0038949295364187,6892.7366856724,0.00074118725024164,-0.0061908969655633,2.1920390129089,88.306782072681,0.0038949295364187,-1.4895306399502e-07,0,0,0,0.0061585853105982,0.0050733837053083,119.53494254539,0,0,
5.4645000705495,-195.91656791224,-162.33029908347,119.5350932059,0.0009842742915405,6402.0289913469,0.00051765097305179,-0.0062058102339506,2.1920623779297,88.497493418873,0.0009842742915405,-5.9266460352508e-10,0,0,0,0.0013569265333314,0.0010482234433112,119.53506051402,0,0,
5.6385000729933,-195.91659109975,-162.330303286,119.53518490411,0.0004294569049838,5880.345950812,0.00049578468315303,-0.0062014451250434,2.1920778751373,88.620853971945,0.0004294569049838,-1.4878609293517e-10,0,0,0,0.00057800725246142,0.00056363141196645,119.53516049656,0,0,
5.8110000751913,-195.91659472234,-162.33030708104,119.53522089155,0.00017270231275444,5369.2925833242,0.00048281368799508,-0.0061917300336063,2.1920790672302,88.690199232597,0.00017270231275444,-2.4797682155861e-11,0,0,0,0.00028510217582485,0.00024447119963283,119.53521016611,0,0,
5.9820000771433,-195.91659834535,-162.3303096669,119.53523268625,0.00033068610260034,4872.9561348462,0.00047432724386454,-0.0061855548992753,2.1920738220215,88.721133890859,0.00033068610260034,8.2658940519537e-13,0,0,0,0.00027199974752888,0.00013671879670467,119.5352298953,0,0,
6.1525000790134,-195.91660178952,-162.33031167657,119.53523509498,0.00019126731810833,4387.7634186361,0.00046589388512075,-0.0061833439394832,2.192066192627,88.725786482473,0.00019126731810833,0,0,0,0,0.00017817389996343,8.095495295458e-05,119.53523242746,0,0,
6.3230000808835,-195.91660386164,-162.33031266162,119.53523445688,0.00017543494201956,3910.1626029674,0.00045896368101239,-0.0061835525557399,2.1920604705811,88.712917119748,0.00017543494201956,0,0,0,0,0.0001503595863684,6.2460274030464e-05,119.53523253882,0,0,
6.4935000827536,-195.91660369971,-162.33031300939,119.5352331807,7.9702962157461e-05,3441.1155023389,0.00045172893442214,-0.0061836186796427,2.1920578479767,88.688875760641,7.9702962157461e-05,0,0,0,0,0.00018854556064463,6.2912758205098e-05,119.53523254372,0,0,
6.6645000847057,-195.91660294147,-162.33031274057,119.53523166421,0.00013830976379373,2979.7873378666,0.00044528278522193,-0.0061840093694627,2.1920592784882,88.658192825542,0.00013830976379373,0,0,0,0,0.00016532787885264,5.3810778835609e-05,119.53523254394,0,0,
6.8355000866577,-195.91660181043,-162.33031257488,119.53523145578,0.00038523196194618,2526.9741574051,0.00043966341763735,-0.0061834254302084,2.1920626163483,88.624063747009,0.00038523196194618,0,0,0,0,0.0002224823595414,4.6636204182108e-05,119.53523254394,0,0,
7.0060000885278,-195.91659974364,-162.33031142012,119.53522982937,7.3629052715087e-05,2082.1297059928,0.0004346847999841,-0.0061840042471886,2.1920659542084,88.588714044005,7.3629052715087e-05,0,0,0,0,0.00017019534192092,3.6474860417457e-05,119.53523254395,0,0,
7.1780000906438,-195.91659886898,-162.33031128896,119.53522764649,6.0846511173457e-05,1642.1828930327,0.00042870920151472,-0.0061844275332987,2.192067861557,88.55360722674,6.0846511173457e-05,0,0,0,0,0.00015745186831441,4.1442793923188e-05,119.53522691455,0,0,
7.3480000924319,-195.91659912024,-162.33031126431,119.53522661178,9.044230129688e-05,1213.16924265,0.00042291660793126,-0.0061841383576393,2.1920673847198,88.51979420617,9.044230129688e-05,0,0,0,0,0.00020016792867712,3.3291201529694e-05,119.53522500251,0,0,
7.51800009422,-195.91659877347,-162.33031116737,119.53522537425,0.00040588813478869,793.19107486143,0.00041662971489131,-0.0061843078583479,2.1920657157898,88.48793835601,0.00040588813478869,0,0,0,0,0.00021098708205518,2.7260992632441e-05,119.53522491842,0,0,
7.6875000959262,-195.91657514075,-162.33035444036,119.53509469791,0.0010599524599481,645.61671325058,7.8959157690406e-05,-0.0061873295344412,2.192049741745,88.458828257344,0.0010599524599481,-6.3816835028109e-09,0,0,1,0.0012622144657602,0.0010590750931918,119.53513554796,0,0,
7.8575000977144,-195.91658429839,-162.33031333636,119.53509381296,0.00019942044272455,635.30794927941,6.7119486629963e-05,-0.0061902371235192,2.1920492649078,88.433691091123,0.00019942044272455,-1.3225430483126e-11,0,0,1,0.00043291062165226,0.00038207339005786,119.53508657866,0,0,
8.0275000995025,-195.91658607352,-162.33031775386,119.53509938732,0.00019425478673638,636.77667180007,4.8730056732893e-05,-0.0061866673640907,2.1920504570007,88.412223221346,0.00019425478673638,-1.6531788103907e-12,0,0,1,0.00019378382345202,8.1833604425951e-05,119.53509933941,0,0,
8.1970001012087,-195.91658666496,-162.33031772458,119.5351052885,0.00040587439385973,635.17063737766,5.8985315263271e-05,-0.0061851777136326,2.1920535564423,88.393993226399,0.00040587439385973,-7.0260099441607e-12,0,0,1,0.00029523934594394,8.8230133140617e-05,119.53510366666,0,0,
8.3670001029968,-195.91661393291,-162.33032297618,119.53474355849,0.006369320287282,1232.0205866264,-0.00091942958533764,-0.0061922748573124,2.1920111179352,88.378911465372,0.006369320287282,5.3629947198481e-08,0.36300000362098,0,0,0.0046936754406575,0.0032875149278662,119.53490957808,0,0.36300000362098,
8.537000104785,-195.91658898673,-162.33037764475,119.53423992191,0.00070602605735489,3299.2249690557,-0.0020835949108005,-0.0061978581361473,2.1920037269592,88.377393105148,0.00070602605735489,1.6069724626403e-08,0.8730000089854,0,0,0.0020448919474824,0.0025522708141611,119.53431603867,0,0.8730000089854,
8.708500106819,-195.91662169029,-162.3302267407,119.53477228217,0.0093181728528938,4529.6879142561,-0.00035137566737831,-0.0062075569294393,2.1921072006226,88.426634634266,0.0093181728528938,3.5568059446616e-07,0,0,0,0.0082182579413306,0.0056627386583961,119.53462502279,0,0,
8.880000108853,-195.91652524911,-162.33029434929,119.53502423645,0.0017318386967672,4149.680071996,0.00055103958584368,-0.0062066479586065,2.1920833587646,88.493901222275,0.0017318386967672,-1.3420505582752e-08,0,0,0,0.0028758745468125,0.0025880272188248,119.53502787604,0,0,
9.051000110805,-195.91656745522,-162.33028546684,119.53512160248,0.00062503253871576,3679.2514125335,0.00045016617514193,-0.0062111532315612,2.1920526027679,88.54097717038,0.00062503253871576,2.5458953680017e-10,0,0,0,0.00094230195455615,0.00088588890467549,119.53508631228,0,0,
9.222500112839,-195.91659336203,-162.33030587064,119.53519098431,0.00024815366303442,3216.753921722,0.00044614356011152,-0.0062019755132496,2.1920447349548,88.567683417755,0.00024815366303442,1.0167049683903e-10,0.073500000871718,0,0,0.00043059853245548,0.00046396230139038,119.53517694839,0,0.073500000871718,
9.3940001148731,-195.91654850905,-162.33043445556,119.5345615236,0.0055914738500942,4016.2514724769,-0.0012339511886239,-0.0062033133581281,2.1919937133789,88.587880359301,0.0055914738500942,-1.0537981679485e-07,0.58800000697374,0,0,0.0052169458069252,0.0045123806551963,119.53478631122,0,0.58800000697374,
9.5655001169071,-195.91640058303,-162.33058073161,119.53450539637,0.0083996987185717,5792.3463036945,-0.0011497531086206,-0.0062278341501951,2.1919877529144,88.643557710981,0.0083996987185717,-1.8184512290125e-07,0,0,0,0.0062409482050074,0.004326634812453,119.53436202679,0,0,
9.7370001189411,-195.91652763072,-162.33030615438,119.53506187012,0.0025730707434763,5564.6340475073,0.00085689290426672,-0.0062120258808136,2.1920535564423,88.722902775724,0.0025730707434763,-2.4343471277706e-07,0,0,0,0.005108150318303,0.0047492769284081,119.5349580776,0,0,
9.9085001209751,-195.91655535464,-162.33028804185,119.53507784927,0.00089206329799363,5076.8879537525,0.00048398715443909,-0.006215697620064,2.1920568943024,88.779601255007,0.00089206329799363,-5.0256635835879e-10,0,0,0,0.0012992668719216,0.0011028464640196,119.53504001972,0,0,
10.079500122927,-195.91656854183,-162.33028882805,119.53517387874,0.00036732782367979,4586.2061189472,0.00047596148215234,-0.0062058139592409,2.1920669078827,88.810916479168,0.00036732782367979,-4.9182069609125e-11,0,0,0,0.00056372543495978,0.00053947697840216,119.53515058674,0,0,
10.251000124961,-195.91663601674,-162.3302399893,119.53501987453,0.0036625094950305,4388.883050771,-6.2963925302029e-05,-0.0061939302831888,2.1920619010925,88.824082882311,0.0036625094950305,2.8477658187791e-08,0.3300000037998,0,0,0.0025182688140982,0.0017063558055227,119.53511755405,0,0.3300000037998,
10.421500126831,-195.91656475441,-162.33039334447,119.53431223659,0.0021936774233889,5890.6150809681,-0.0018115533748642,-0.0062035135924816,2.1920154094696,88.853011104587,0.0021936774233889,4.1056695756054e-09,0.84150000941008,0,0,0.0035944797970734,0.0039916247956605,119.53449255459,0,0.84150000941008,
10.592500128783,-195.91664381128,-162.33019530212,119.5347336851,0.0089838602581175,7004.9031061405,-0.00040122517384589,-0.0062024020589888,2.1921000480652,88.935686720967,0.0089838602581175,3.4852233021717e-07,0,0,0,0.0078752087976162,0.005435024350334,119.53460716191,0,0,
10.765000130981,-195.91655788222,-162.33026081774,119.53502496465,0.0009100266543941,6662.6294378405,0.00052405288442969,-0.0062112058512866,2.1920785903931,89.02697307758,0.0009100266543941,2.0416758308326e-10,0,0,0,0.0023819225028532,0.002004459131074,119.53500540241,0,0,
10.938500133343,-195.9165840899,-162.33029496974,119.5351395015,0.00075440904575509,6147.0541471483,0.00048111635260284,-0.0062087257392704,2.1920590400696,89.087358487833,0.00075440904575509,2.4301728512744e-10,0,0,0,0.00083246743645221,0.00072735105754399,119.5351112227,0,0,
11.110500135459,-195.91659779527,-162.33030827,119.53520281519,0.00035162015715466,5632.9712825315,0.00048482394777238,-0.0061978474259377,2.1920530796051,89.11789843373,0.00035162015715466,2.6450860966252e-11,0,0,0,0.00033496050309788,0.00034934854326478,119.53519057226,0,0,
11.281500137411,-195.91659978331,-162.33030935312,119.53522552782,0.00026657790650636,5132.2330961047,0.00047676381655037,-0.0061889761127532,2.1920564174652,89.126597137614,0.00026657790650636,0,0,0,0,0.00025753509141124,0.00017109678016909,119.53522067216,0,0,
11.451500139199,-195.91659654243,-162.33030776595,119.53523289181,0.00026583129086913,4643.4346516981,0.00047050346620381,-0.0061845565214753,2.1920626163483,89.120373257784,0.00026583129086913,-8.2658940519537e-13,0,0,0,0.0001667702521303,8.5858814289895e-05,119.53523153816,0,0,
11.623000141233,-195.91659510736,-162.33030735613,119.53523344105,0.00036037618107576,4161.255317963,0.00046310969628394,-0.0061828307807446,2.192067861557,89.104319437649,0.00036037618107576,0,0,0,0,0.00023830917103038,5.7603505161524e-05,119.53523249971,0,0,
11.794000143185,-195.91659532387,-162.33030793483,119.5352327344,0.00019494656926173,3686.1211043748,0.00045807450078428,-0.0061833956278861,2.1920702457428,89.082094262734,0.00019494656926173,0,0,0,0,0.00017087379757922,5.7658733972526e-05,119.535232542,0,0,
11.965500145219,-195.91659589267,-162.33030841587,119.53523157315,0.00018824086975974,3218.3940038265,0.00045153498649597,-0.0061837970279157,2.1920697689056,89.056370735554,0.00018824086975974,0,0,0,0,0.00016081444137453,4.8134611454565e-05,119.53523254386,0,0,
12.131500148214,-195.91659606868,-162.3303084435,119.53523006723,7.1401942373386e-05,2782.8242803341,0.0004442511126399,-0.0061835278756917,2.1920659542084,89.030930882112,7.1401942373386e-05,0,0,0,0,0.00010663119719352,3.931497567702e-05,119.53523254394,0,0,
12.295500150882,-195.91659775661,-162.33030921589,119.53522819814,6.7297702517696e-05,2346.8901499624,0.00043734139762819,-0.0061843050643802,2.1920621395111,89.004946925063,6.7297702517696e-05,0,0,0,0,0.0001492262495631,3.5116121353636e-05,119.53522741455,0,0,
12.469500153325,-195.91659789926,-162.33030906692,119.53522691312,0.00018199488768941,1894.5869550194,0.00043171690776944,-0.0061842780560255,2.1920607089996,88.977461216878,0.00018199488768941,0,0,0,0,0.00015989340040894,3.8801984426709e-05,119.5352250245,0,0,
12.642500155605,-195.91659720724,-162.33030909813,119.53522533973,7.0222610897087e-05,1454.8524940315,0.00042516901157796,-0.0061849215999246,2.1920611858368,88.951186081662,7.0222610897087e-05,0,0,0,0,0.00019263434559279,3.8161015844346e-05,119.53522491939,0,0,
12.810500158928,-195.91659638979,-162.3303092841,119.53522489406,0.0002093026299736,1042.4253314025,0.00041958200745285,-0.0061844638548791,2.1920630931854,88.928139312581,0.0002093026299736,0,0,0,0,0.00017759991135364,2.6564963173973e-05,119.53522491482,0,0,
12.974500161596,-195.91661639904,-162.33028345811,119.53519535231,0.0016354541378662,683.39976754725,0.00030769919976592,-0.0061806491576135,2.1920673847198,88.906552934027,0.0016354541378662,5.4554900742895e-11,0,0,1,0.00080371381483031,0.00036082308455712,119.53521539308,0,0,
13.148000163957,-195.91658868485,-162.3303089213,119.53506612126,0.00037301407961152,629.37797111882,4.7299545258284e-06,-0.0061879102140665,2.1920604705811,88.886172543493,0.00037301407961152,1.2869997038892e-09,0,0,1,0.0008584520932275,0.00083197565646518,119.53509006072,0,0,
13.320000166073,-195.91658752559,-162.33031221678,119.53509595214,0.00026181775308702,627.49987904934,5.295081064105e-05,-0.0061901919543743,2.1920580863953,88.869249217587,0.00026181775308702,0,0,0,1,0.00031109212321526,0.00016405258370046,119.53509337131,0,0,
13.485000168905,-195.91659363144,-162.33029534573,119.53508690507,0.0025090746931149,668.66873055252,4.9665104597807e-06,-0.0061872517690063,2.1920609474182,88.856214662112,0.0025090746931149,1.074566226754e-11,0.11550000216812,0,0,0.00070604901781539,0.00023354524533022,119.53509916684,0,0.11550000216812,
13.649000171572,-195.91653815195,-162.3304597466,119.53436302152,0.0042818339164976,2128.4237133626,-0.00181030028034,-0.0061975666321814,2.1920018196106,88.84803517885,0.0042818339164976,-2.5347364110316e-07,0.60750001017004,0,0,0.0050186265136114,0.0046933262795458,119.53458433321,0,0.60750001017004,
13.822500173934,-195.91658291716,-162.33039309658,119.53428194435,0.00051037578075902,4542.4889895868,-0.0021189148537815,-0.0062004365026951,2.191990852356,88.870001418583,0.00051037578075902,-1.07869917378e-10,1,0,0,0.00099970975686706,0.00098044690625727,119.53427237218,0,1,
13.996500176378,-195.91650413373,-162.33050891364,119.53451800258,0.0083092251268735,6849.5050398322,-0.0016402235487476,-0.0061992132104933,2.1919720172882,89.003473662753,0.0083092251268735,-1.1284598559727e-08,1,0,0,0.0037337050817792,0.0020535471883836,119.53438917697,0,1,
14.170500178821,-195.91657527248,-162.33033473501,119.53501830275,0.0044801748833015,7037.0461700632,0.00048715947195888,-0.0061967731453478,2.192022562027,89.235271900533,0.0044801748833015,-1.7977699620945e-07,1,0,0,0.0058527569269584,0.0046669758182364,119.53492530075,0,1,
14.332500181161,-195.91656266336,-162.330297103,119.53494045753,0.0013650047395931,7044.2446671456,3.6197947338223e-05,-0.006207371596247,2.1920518875122,89.421760413258,0.0013650047395931,4.5214440464187e-10,1,0,0,0.0016653685029712,0.0012736078049973,119.53491921309,0,1,
14.506000183523,-195.91657163729,-162.33030555891,119.53504584929,0.00038119845504869,7044.769096747,5.5197393521667e-05,-0.0062048705294728,2.1920697689056,89.573763195951,0.00038119845504869,-1.5167915585335e-10,1,0,0,0.00062179192516334,0.00060414255251985,119.53502193889,0,1,
14.679500185885,-195.91658068818,-162.33031232287,119.53508636132,0.00024516804819204,7044.8301084024,5.245697684586e-05,-0.0061945100314915,2.19207072258,89.688024741717,0.00024516804819204,-4.1742764962366e-11,1,0,0,0.000320864353053,0.00028794911684201,119.53507615456,0,1,
14.852000188082,-195.91658647542,-162.33031725478,119.53509947988,0.00013200703856488,7044.8329273702,4.9695372581482e-05,-0.0061881500296295,2.1920642852783,89.775451826056,0.00013200703856488,-9.0924834571491e-12,1,0,0,0.00021427811343489,0.00015121397047385,119.53509558263,0,1,
15.024000190198,-195.91658877726,-162.33031888403,119.53510533668,0.00046235749251484,7037.9836184662,5.0559872761369e-05,-0.0061858175322413,2.1920557022095,89.843497665748,0.00046235749251484,8.2658940519537e-13,0,0,0,0.00029839987419503,0.00010052133124852,119.53510252487,0,0,
15.197000192478,-195.91659810044,-162.33027464687,119.53523211334,0.0011852345379768,6627.3627616327,0.00053082732483745,-0.0061860177665949,2.1920557022095,89.891618582253,0.0011852345379768,1.9251267247e-09,0,0,0,0.0012311231165064,0.00096973765044321,119.53520123591,0,0,
15.37050019484,-195.91657800951,-162.33029274553,119.53522516723,0.00039074970074096,6107.4881756396,0.0004763666074723,-0.006191432941705,2.1920576095581,89.910924244622,0.00039074970074096,3.0583807992229e-11,0,0,0,0.00048181052951207,0.00030164081909616,119.5352219348,0,0,
15.54350019712,-195.91657757606,-162.33029265776,119.53524399727,9.3283646636872e-05,5593.0810842841,0.00048703071661294,-0.0061882920563221,2.1920628547668,89.906636846235,9.3283646636872e-05,-2.8930629181838e-12,0,0,0,0.00018474215400696,0.0001141425332447,119.53524012474,0,0,
15.7165001994,-195.91657731833,-162.33029406007,119.53524397204,0.00011812791692972,5087.1254470038,0.00047612562775612,-0.0061846058815718,2.1920671463013,89.88611517742,0.00011812791692972,-2.8930629181838e-12,0,0,0,0.00014420315537189,4.307777389566e-05,119.53524164091,0,0,
15.888000201434,-195.91657759215,-162.33029470763,119.53524420021,3.230186788386e-05,4594.4400717729,0.00047130533494055,-0.0061841187998652,2.1920697689056,89.855446113349,3.230186788386e-05,-2.8930629181838e-12,0,0,0,0.00013025363704207,3.5984221990056e-05,119.53524677602,0,0,
16.059000203386,-195.9165771008,-162.33029393248,119.53524412809,0.00020132633943306,4111.9521459306,0.00046519469469786,-0.006183051969856,2.1920700073242,89.819021551617,0.00020132633943306,-2.8930629181838e-12,0,0,0,0.00017451354413744,4.316647511554e-05,119.53524437562,0,0,
16.230000205338,-195.91657825208,-162.33029504866,119.53524247094,7.9976918736044e-05,3638.6343937157,0.00045871292240918,-0.0061831185594201,2.192067861557,89.77987455487,7.9976918736044e-05,-2.8930629181838e-12,0,0,0,0.00012731936021474,4.8974984158181e-05,119.53524067797,0,0,
16.400500207208,-195.91658013161,-162.33029609148,119.53524045707,0.00014390224469991,3174.351093131,0.00045355386100709,-0.0061837588436902,2.1920647621155,89.740087936864,0.00014390224469991,-2.8930629181838e-12,0,0,0,0.00012553476321093,3.4479778268826e-05,119.53524019553,0,0,
16.570000208914,-195.91657977288,-162.33029604562,119.53523788163,0.00028812984498864,2720.3007898872,0.00044667138718069,-0.006184799131006,2.1920626163483,89.701096455002,0.00028812984498864,-2.8930629181838e-12,0,0,0,0.0001890088032872,2.5351797312084e-05,119.53524017432,0,0,
16.73950021062,-195.91657964619,-162.33029658191,119.53523654963,0.00041328543950411,2274.8902701427,0.00044023315422237,-0.0061850692145526,2.1920621395111,89.663804648806,0.00041328543950411,-2.8930629181838e-12,0,0,0,0.00021270990194773,2.0010491880586e-05,119.53524017338,0,0,
16.910500212573,-195.91657948695,-162.3302961431,119.53523571064,5.9369874529238e-05,1835.3172431571,0.00043517001904547,-0.0061849816702306,2.192063331604,89.628734380935,5.9369874529238e-05,-2.8930629181838e-12,0,0,0,0.00017628328781557,1.9910378314142e-05,119.53523369288,0,0,
17.08300021477,-195.9165787127,-162.33029585742,119.53523401514,0.00010027372809801,1398.7247376835,0.0004289539065212,-0.0061856117099524,2.1920647621155,89.596137807472,0.00010027372809801,-2.8930629181838e-12,0,0,0,0.00018269012178327,1.8142878019885e-05,119.53523259448,0,0,
17.254500216804,-195.91657868497,-162.3302964178,119.53523275585,0.00033064395648161,970.95860457887,0.00042253616265953,-0.0061857327818871,2.1920659542084,89.566189854514,0.00033064395648161,-2.8930629181838e-12,0,0,0,0.00022259222133815,1.9461826738939e-05,119.53523254617,0,0,
17.428500219248,-195.91659595294,-162.33028414337,119.53515708766,0.001535778776993,657.02765971901,0.00021070241928101,-0.0061882906593382,2.1920576095581,89.539023539626,0.001535778776993,3.3501668592568e-09,0,0,1,0.0011485094428114,0.00071423753682924,119.5351975665,0,0,
17.59100022167,-195.91658580368,-162.33029863154,119.53507074989,0.00035719903559463,630.61403843262,1.129973679781e-05,-0.0061883968301117,2.1920568943024,89.517212083038,0.00035719903559463,1.2076471209904e-09,0,0,1,0.00068071019678281,0.00072350659032046,119.53508552707,0,0,
17.76400022395,-195.91658036936,-162.33030796414,119.53509856461,0.00030175349999757,633.44131452308,5.1191775128245e-05,-0.0061894543468952,2.1920573711395,89.497552055579,0.00030175349999757,0,0,0,1,0.00024442184699944,0.0001485382502133,119.53509403249,0,0,
17.937000226229,-195.91657458088,-162.33031120939,119.53510574404,0.00030694491400117,635.89480740223,5.3218565881252e-05,-0.006186056882143,2.1920566558838,89.481338539263,0.00030694491400117,-1.2398841077931e-12,0,0,1,0.00023364864440151,8.957156708213e-05,119.53510245669,0,0,
18.099500228651,-195.91657546136,-162.3303131224,119.53510847221,0.00030469101148736,633.75416948885,5.8535253629088e-05,-0.0061844661831856,2.1920540332794,89.468887038378,0.00030469101148736,-7.0260099441607e-12,0,0,1,0.00027257312421494,0.00011905115993038,119.53510730179,0,0,
18.271500230767,-195.91657909471,-162.33031081159,119.53510445806,0.00017810888095178,635.57303727148,4.6204077079892e-05,-0.0061844061128795,2.1920526027679,89.457853929622,0.00017810888095178,0,0,0,1,0.00020886559884321,5.7682672006477e-05,119.5351033601,0,0,
18.443500232883,-195.91657901465,-162.33030885462,119.53510655435,0.00029131634531181,639.34519799871,4.9309339374304e-05,-0.0061839418485761,2.1920516490936,89.448941076489,0.00029131634531181,0,0,0,1,0.00023606999485156,6.8566350996724e-05,119.53510318693,0,0,
18.614500234835,-195.91657989332,-162.33030824301,119.53510610219,0.00021323781433014,639.24825202055,4.9432972446084e-05,-0.0061843725852668,2.1920526027679,89.441820941934,0.00021323781433014,0,0,0,1,0.00019011597291772,5.288333946525e-05,119.53510740658,0,0,
18.786000236869,-195.9165790142,-162.33030939521,119.5351105043,7.6714088153325e-05,633.35118441603,6.154365837574e-05,-0.0061845281161368,2.192054271698,89.436197230882,7.6714088153325e-05,0,0,0,1,0.00018443225474467,5.0553286338222e-05,119.53511025486,0,0,
18.958000238985,-195.91657744181,-162.33031131053,119.53510508329,0.00024033070192948,632.57993557851,4.6414090320468e-05,-0.00618488015607,2.1920549869537,89.431805654976,0.00024033070192948,0,0,0,1,0.00021027674591326,5.6416497870963e-05,119.53510595962,0,0,